station code,Country,station name,longitude,latitude,URL
C1I260,南投縣,北坑,121.006903,23.9246,https://e-service.cwb.gov.tw/HistoryDataQuery/MonthDataController.do?command=viewMain&station=C1I260&stname=%25E5%258C%2597%25E5%259D%2591&datepicker=
C0I370,南投縣,魚池,120.94135,23.895703,https://e-service.cwb.gov.tw/HistoryDataQuery/MonthDataController.do?command=viewMain&station=C0I370&stname=%25E9%25AD%259A%25E6%25B1%25A0&datepicker=
C1I140,南投縣,卡奈托灣,121.087872,23.754364,https://e-service.cwb.gov.tw/HistoryDataQuery/MonthDataController.do?command=viewMain&station=C1I140&stname=%25E5%258D%25A1%25E5%25A5%2588%25E6%2589%2598%25E7%2581%25A3&datepicker=
C1I150,南投縣,青雲,120.949378,23.793361,https://e-service.cwb.gov.tw/HistoryDataQuery/MonthDataController.do?command=viewMain&station=C1I150&stname=%25E9%259D%2592%25E9%259B%25B2&datepicker=
C1I290,南投縣,豐丘,120.887417,23.668178,https://e-service.cwb.gov.tw/HistoryDataQuery/MonthDataController.do?command=viewMain&station=C1I290&stname=%25E8%25B1%2590%25E4%25B8%2598&datepicker=
C1I310,南投縣,西巒,120.883956,23.754486,https://e-service.cwb.gov.tw/HistoryDataQuery/MonthDataController.do?command=viewMain&station=C1I310&stname=%25E8%25A5%25BF%25E5%25B7%2592&datepicker=
C1I500,南投縣,大尖山,120.994889,23.858572,https://e-service.cwb.gov.tw/HistoryDataQuery/MonthDataController.do?command=viewMain&station=C1I500&stname=%25E5%25A4%25A7%25E5%25B0%2596%25E5%25B1%25B1&datepicker=
C1I510,南投縣,線浸林道,120.832956,23.761508,https://e-service.cwb.gov.tw/HistoryDataQuery/MonthDataController.do?command=viewMain&station=C1I510&stname=%25E7%25B7%259A%25E6%25B5%25B8%25E6%259E%2597%25E9%2581%2593&datepicker=
C1I050,南投縣,丹大,121.141147,23.753747,https://e-service.cwb.gov.tw/HistoryDataQuery/MonthDataController.do?command=viewMain&station=C1I050&stname=%25E4%25B8%25B9%25E5%25A4%25A7&datepicker=
C0I010,南投縣,廬山,121.181808,24.033311,https://e-service.cwb.gov.tw/HistoryDataQuery/MonthDataController.do?command=viewMain&station=C0I010&stname=%25E5%25BB%25AC%25E5%25B1%25B1&datepicker=
C0I390,南投縣,仁愛,121.132206,24.022122,https://e-service.cwb.gov.tw/HistoryDataQuery/MonthDataController.do?command=viewMain&station=C0I390&stname=%25E4%25BB%2581%25E6%2584%259B&datepicker=
C0I480,南投縣,梅峰,121.173572,24.085272,https://e-service.cwb.gov.tw/HistoryDataQuery/MonthDataController.do?command=viewMain&station=C0I480&stname=%25E6%25A2%2585%25E5%25B3%25B0&datepicker=
C0I490,南投縣,萬大林道,121.091411,23.928228,https://e-service.cwb.gov.tw/HistoryDataQuery/MonthDataController.do?command=viewMain&station=C0I490&stname=%25E8%2590%25AC%25E5%25A4%25A7%25E6%259E%2597%25E9%2581%2593&datepicker=
C1I020,南投縣,萬大,121.132261,23.979817,https://e-service.cwb.gov.tw/HistoryDataQuery/MonthDataController.do?command=viewMain&station=C1I020&stname=%25E8%2590%25AC%25E5%25A4%25A7&datepicker=
C1I030,南投縣,武界,121.052483,23.913225,https://e-service.cwb.gov.tw/HistoryDataQuery/MonthDataController.do?command=viewMain&station=C1I030&stname=%25E6%25AD%25A6%25E7%2595%258C&datepicker=
C1I250,南投縣,鯉潭,120.991131,23.961922,https://e-service.cwb.gov.tw/HistoryDataQuery/MonthDataController.do?command=viewMain&station=C1I250&stname=%25E9%25AF%2589%25E6%25BD%25AD&datepicker=
C1H860,南投縣,瑞岩,121.18345,24.123772,https://e-service.cwb.gov.tw/HistoryDataQuery/MonthDataController.do?command=viewMain&station=C1H860&stname=%25E7%2591%259E%25E5%25B2%25A9&datepicker=
C1I320,南投縣,奧萬大,121.178556,23.952956,https://e-service.cwb.gov.tw/HistoryDataQuery/MonthDataController.do?command=viewMain&station=C1I320&stname=%25E5%25A5%25A7%25E8%2590%25AC%25E5%25A4%25A7&datepicker=
C1I330,南投縣,楓樹林,121.076117,23.986803,https://e-service.cwb.gov.tw/HistoryDataQuery/MonthDataController.do?command=viewMain&station=C1I330&stname=%25E6%25A5%2593%25E6%25A8%25B9%25E6%259E%2597&datepicker=
C1I400,南投縣,凌霄,121.004456,24.018778,https://e-service.cwb.gov.tw/HistoryDataQuery/MonthDataController.do?command=viewMain&station=C1I400&stname=%25E5%2587%258C%25E9%259C%2584&datepicker=
C0H990,南投縣,昆陽,121.273642,24.121322,https://e-service.cwb.gov.tw/HistoryDataQuery/MonthDataController.do?command=viewMain&station=C0H990&stname=%25E6%2598%2586%25E9%2599%25BD&datepicker=
C0H9C0,南投縣,合歡山,121.272547,24.143442,https://e-service.cwb.gov.tw/HistoryDataQuery/MonthDataController.do?command=viewMain&station=C0H9C0&stname=%25E5%2590%2588%25E6%25AD%25A1%25E5%25B1%25B1&datepicker=
C0I530,南投縣,小奇萊,121.295717,24.131764,https://e-service.cwb.gov.tw/HistoryDataQuery/MonthDataController.do?command=viewMain&station=C0I530&stname=%25E5%25B0%258F%25E5%25A5%2587%25E8%2590%258A&datepicker=
C1H000,南投縣,翠峰,121.205211,24.109397,https://e-service.cwb.gov.tw/HistoryDataQuery/MonthDataController.do?command=viewMain&station=C1H000&stname=%25E7%25BF%25A0%25E5%25B3%25B0&datepicker=
C0I360,南投縣,水里,120.849792,23.812553,https://e-service.cwb.gov.tw/HistoryDataQuery/MonthDataController.do?command=viewMain&station=C0I360&stname=%25E6%25B0%25B4%25E9%2587%258C&datepicker=
467650,南投縣,日月潭,120.90805,23.881325,https://e-service.cwb.gov.tw/HistoryDataQuery/MonthDataController.do?command=viewMain&station=467650&stname=%25E6%2597%25A5%25E6%259C%2588%25E6%25BD%25AD&datepicker=
C1I430,南投縣,翠華,121.224339,24.191961,https://e-service.cwb.gov.tw/HistoryDataQuery/MonthDataController.do?command=viewMain&station=C1I430&stname=%25E7%25BF%25A0%25E8%258F%25AF&datepicker=
C0I540,南投縣,奇萊稜線,121.326456,24.109231,https://e-service.cwb.gov.tw/HistoryDataQuery/MonthDataController.do?command=viewMain&station=C0I540&stname=%25E5%25A5%2587%25E8%2590%258A%25E7%25A8%259C%25E7%25B7%259A&datepicker=
C1U670,宜蘭縣,寒溪,121.71691,24.634,https://e-service.cwb.gov.tw/HistoryDataQuery/MonthDataController.do?command=viewMain&station=C1U670&stname=%25E5%25AF%2592%25E6%25BA%25AA&datepicker=
C0U900,宜蘭縣,內城,121.68766,24.71813,https://e-service.cwb.gov.tw/HistoryDataQuery/MonthDataController.do?command=viewMain&station=C0U900&stname=%25E5%2585%25A7%25E5%259F%258E&datepicker=
C0U890,宜蘭縣,三星,121.65302,24.66812,https://e-service.cwb.gov.tw/HistoryDataQuery/MonthDataController.do?command=viewMain&station=C0U890&stname=%25E4%25B8%2589%25E6%2598%259F&datepicker=
C0U520,宜蘭縣,雙連埤,121.641303,24.753033,https://e-service.cwb.gov.tw/HistoryDataQuery/MonthDataController.do?command=viewMain&station=C0U520&stname=%25E9%259B%2599%25E9%2580%25A3%25E5%259F%25A4&datepicker=
C0U650,宜蘭縣,玉蘭,121.587061,24.675286,https://e-service.cwb.gov.tw/HistoryDataQuery/MonthDataController.do?command=viewMain&station=C0U650&stname=%25E7%258E%2589%25E8%2598%25AD&datepicker=
C1U630,宜蘭縣,再連,121.679411,24.715053,https://e-service.cwb.gov.tw/HistoryDataQuery/MonthDataController.do?command=viewMain&station=C1U630&stname=%25E5%2586%258D%25E9%2580%25A3&datepicker=
C1U840,宜蘭縣,東澳嶺,121.8485,24.5378,https://e-service.cwb.gov.tw/HistoryDataQuery/MonthDataController.do?command=viewMain&station=C1U840&stname=%25E6%259D%25B1%25E6%25BE%25B3%25E5%25B6%25BA&datepicker=
C0UA50,宜蘭縣,西帽山,121.802628,24.555361,https://e-service.cwb.gov.tw/HistoryDataQuery/MonthDataController.do?command=viewMain&station=C0UA50&stname=%25E8%25A5%25BF%25E5%25B8%25BD%25E5%25B1%25B1&datepicker=
C0UA40,宜蘭縣,西德山,121.752608,24.560647,https://e-service.cwb.gov.tw/HistoryDataQuery/MonthDataController.do?command=viewMain&station=C0UA40&stname=%25E8%25A5%25BF%25E5%25BE%25B7%25E5%25B1%25B1&datepicker=
C0U770,宜蘭縣,南澳,121.81022,24.44935,https://e-service.cwb.gov.tw/HistoryDataQuery/MonthDataController.do?command=viewMain&station=C0U770&stname=%25E5%258D%2597%25E6%25BE%25B3&datepicker=
C0U760,宜蘭縣,東澳,121.83318,24.52196,https://e-service.cwb.gov.tw/HistoryDataQuery/MonthDataController.do?command=viewMain&station=C0U760&stname=%25E6%259D%25B1%25E6%25BE%25B3&datepicker=
C1U850,宜蘭縣,觀音海岸,121.77856,24.38319,https://e-service.cwb.gov.tw/HistoryDataQuery/MonthDataController.do?command=viewMain&station=C1U850&stname=%25E8%25A7%2580%25E9%259F%25B3%25E6%25B5%25B7%25E5%25B2%25B8&datepicker=
C0UA60,宜蘭縣,樟樹山,121.78325,24.41393,https://e-service.cwb.gov.tw/HistoryDataQuery/MonthDataController.do?command=viewMain&station=C0UA60&stname=%25E6%25A8%259F%25E6%25A8%25B9%25E5%25B1%25B1&datepicker=
C0U720,宜蘭縣,南山,121.38167,24.43742,https://e-service.cwb.gov.tw/HistoryDataQuery/MonthDataController.do?command=viewMain&station=C0U720&stname=%25E5%258D%2597%25E5%25B1%25B1&datepicker=
C1U501,宜蘭縣,牛鬥,121.573656,24.637836,https://e-service.cwb.gov.tw/HistoryDataQuery/MonthDataController.do?command=viewMain&station=C1U501&stname=%25E7%2589%259B%25E9%25AC%25A5&datepicker=
C0UA20,宜蘭縣,多加屯,121.373189,24.368614,https://e-service.cwb.gov.tw/HistoryDataQuery/MonthDataController.do?command=viewMain&station=C0UA20&stname=%25E5%25A4%259A%25E5%258A%25A0%25E5%25B1%25AF&datepicker=
C0U780,宜蘭縣,五結,121.79794,24.68637,https://e-service.cwb.gov.tw/HistoryDataQuery/MonthDataController.do?command=viewMain&station=C0U780&stname=%25E4%25BA%2594%25E7%25B5%2590&datepicker=
C0U960,宜蘭縣,翠峰湖,121.608044,24.510856,https://e-service.cwb.gov.tw/HistoryDataQuery/MonthDataController.do?command=viewMain&station=C0U960&stname=%25E7%25BF%25A0%25E5%25B3%25B0%25E6%25B9%2596&datepicker=
C0UA00,宜蘭縣,土場,121.495333,24.576533,https://e-service.cwb.gov.tw/HistoryDataQuery/MonthDataController.do?command=viewMain&station=C0UA00&stname=%25E5%259C%259F%25E5%25A0%25B4&datepicker=
C0UA10,宜蘭縣,鴛鴦湖,121.412228,24.590269,https://e-service.cwb.gov.tw/HistoryDataQuery/MonthDataController.do?command=viewMain&station=C0UA10&stname=%25E9%25B4%259B%25E9%25B4%25A6%25E6%25B9%2596&datepicker=
C0UA30,宜蘭縣,白嶺,121.519031,24.527819,https://e-service.cwb.gov.tw/HistoryDataQuery/MonthDataController.do?command=viewMain&station=C0UA30&stname=%25E7%2599%25BD%25E5%25B6%25BA&datepicker=
C1U610,宜蘭縣,大礁溪,121.678333,24.785958,https://e-service.cwb.gov.tw/HistoryDataQuery/MonthDataController.do?command=viewMain&station=C1U610&stname=%25E5%25A4%25A7%25E7%25A4%2581%25E6%25BA%25AA&datepicker=
C0U620,宜蘭縣,壯圍,121.78965,24.743703,https://e-service.cwb.gov.tw/HistoryDataQuery/MonthDataController.do?command=viewMain&station=C1U620&stname=%25E5%25A3%25AF%25E5%259C%258D&datepicker=
467060,宜蘭縣,蘇澳,121.857372,24.596736,https://e-service.cwb.gov.tw/HistoryDataQuery/MonthDataController.do?command=viewMain&station=467060&stname=%25E8%2598%2587%25E6%25BE%25B3&datepicker=
C0U990,宜蘭縣,員山,121.72247,24.74435,https://e-service.cwb.gov.tw/HistoryDataQuery/MonthDataController.do?command=viewMain&station=C0U990&stname=%25E5%2593%25A1%25E5%25B1%25B1&datepicker=
C0U600,宜蘭縣,礁溪,121.765536,24.817544,https://e-service.cwb.gov.tw/HistoryDataQuery/MonthDataController.do?command=viewMain&station=C0U600&stname=%25E7%25A4%2581%25E6%25BA%25AA&datepicker=
467080,宜蘭縣,宜蘭,121.756528,24.763975,https://e-service.cwb.gov.tw/HistoryDataQuery/MonthDataController.do?command=viewMain&station=467080&stname=%25E5%25AE%259C%25E8%2598%25AD&datepicker=
C0U680,宜蘭縣,冬山,121.793544,24.632419,https://e-service.cwb.gov.tw/HistoryDataQuery/MonthDataController.do?command=viewMain&station=C0U680&stname=%25E5%2586%25AC%25E5%25B1%25B1&datepicker=
C1U690,宜蘭縣,新寮,121.751267,24.625561,https://e-service.cwb.gov.tw/HistoryDataQuery/MonthDataController.do?command=viewMain&station=C1U690&stname=%25E6%2596%25B0%25E5%25AF%25AE&datepicker=
C0U940,宜蘭縣,羅東,121.74934,24.68184,https://e-service.cwb.gov.tw/HistoryDataQuery/MonthDataController.do?command=viewMain&station=C0U940&stname=%25E7%25BE%2585%25E6%259D%25B1&datepicker=
C0U910,宜蘭縣,冬山,121.7937,24.63373,https://e-service.cwb.gov.tw/HistoryDataQuery/MonthDataController.do?command=viewMain&station=C0U910&stname=%25E5%2586%25AC%25E5%25B1%25B1&datepicker=
C0U870,宜蘭縣,大礁溪,121.67505,24.79104,https://e-service.cwb.gov.tw/HistoryDataQuery/MonthDataController.do?command=viewMain&station=C0U870&stname=%25E5%25A4%25A7%25E7%25A4%2581%25E6%25BA%25AA&datepicker=
C1U660,宜蘭縣,三星,121.6544,24.670636,https://e-service.cwb.gov.tw/HistoryDataQuery/MonthDataController.do?command=viewMain&station=C1U660&stname=%25E4%25B8%2589%25E6%2598%259F&datepicker=
C1U830,宜蘭縣,烏石鼻,121.839383,24.482681,https://e-service.cwb.gov.tw/HistoryDataQuery/MonthDataController.do?command=viewMain&station=C1U830&stname=%25E7%2583%258F%25E7%259F%25B3%25E9%25BC%25BB&datepicker=
C0U710,宜蘭縣,太平山,121.525656,24.505486,https://e-service.cwb.gov.tw/HistoryDataQuery/MonthDataController.do?command=viewMain&station=C0U710&stname=%25E5%25A4%25AA%25E5%25B9%25B3%25E5%25B1%25B1&datepicker=
C1U920,宜蘭縣,思源,121.347214,24.393125,https://e-service.cwb.gov.tw/HistoryDataQuery/MonthDataController.do?command=viewMain&station=C1U920&stname=%25E6%2580%259D%25E6%25BA%2590&datepicker=
C1U720,宜蘭縣,南山,121.381669,24.437419,https://e-service.cwb.gov.tw/HistoryDataQuery/MonthDataController.do?command=viewMain&station=C0U720&stname=%25E5%258D%2597%25E5%25B1%25B1&datepicker=
C0U730,宜蘭縣,思源,121.356664,24.397208,https://e-service.cwb.gov.tw/HistoryDataQuery/MonthDataController.do?command=viewMain&station=C0U730&stname=%25E6%2580%259D%25E6%25BA%2590&datepicker=
C0AH90,新北市,福山植物園,121.58135,24.760717,https://e-service.cwb.gov.tw/HistoryDataQuery/MonthDataController.do?command=viewMain&station=C0AH90&stname=%25E7%25A6%258F%25E5%25B1%25B1%25E6%25A4%258D%25E7%2589%25A9%25E5%259C%2592&datepicker=
C1F9W0,臺中市,德基,121.190261,24.254783,https://e-service.cwb.gov.tw/HistoryDataQuery/MonthDataController.do?command=viewMain&station=C1F9W0&stname=%25E5%25BE%25B7%25E5%259F%25BA&datepicker=
C0F9Z0,臺中市,雪山東峰,121.268675,24.388792,https://e-service.cwb.gov.tw/HistoryDataQuery/MonthDataController.do?command=viewMain&station=C0F9Z0&stname=%25E9%259B%25AA%25E5%25B1%25B1%25E6%259D%25B1%25E5%25B3%25B0&datepicker=
C0F861,臺中市,梨山,121.243669,24.247522,https://e-service.cwb.gov.tw/HistoryDataQuery/MonthDataController.do?command=viewMain&station=C0F861&stname=%25E6%25A2%25A8%25E5%25B1%25B1&datepicker=
C0F9Y0,臺中市,桃山,121.303808,24.432739,https://e-service.cwb.gov.tw/HistoryDataQuery/MonthDataController.do?command=viewMain&station=C0F9Y0&stname=%25E6%25A1%2583%25E5%25B1%25B1&datepicker=
C0F0E0,臺中市,南湖圈谷,121.444667,24.363714,https://e-service.cwb.gov.tw/HistoryDataQuery/MonthDataController.do?command=viewMain&station=C0F0E0&stname=%25E5%258D%2597%25E6%25B9%2596%25E5%259C%2588%25E8%25B0%25B7&datepicker=
C0F0D0,臺中市,審馬陣,121.4203,24.381675,https://e-service.cwb.gov.tw/HistoryDataQuery/MonthDataController.do?command=viewMain&station=C0F0D0&stname=%25E5%25AF%25A9%25E9%25A6%25AC%25E9%2599%25A3&datepicker=
C1T920,花蓮縣,中興,121.498653,23.769503,https://e-service.cwb.gov.tw/HistoryDataQuery/MonthDataController.do?command=viewMain&station=C1T920&stname=%25E4%25B8%25AD%25E8%2588%2588&datepicker=
C0Z200,花蓮縣,萬榮,121.420106,23.709219,https://e-service.cwb.gov.tw/HistoryDataQuery/MonthDataController.do?command=viewMain&station=C0Z200&stname=%25E8%2590%25AC%25E6%25A6%25AE&datepicker=
C0Z160,花蓮縣,鳳林,121.453411,23.746114,https://e-service.cwb.gov.tw/HistoryDataQuery/MonthDataController.do?command=viewMain&station=C0Z160&stname=%25E9%25B3%25B3%25E6%259E%2597&datepicker=
C0Z080,花蓮縣,富源,121.378225,23.587642,https://e-service.cwb.gov.tw/HistoryDataQuery/MonthDataController.do?command=viewMain&station=C0Z080&stname=%25E5%25AF%258C%25E6%25BA%2590&datepicker=
C0T9H0,花蓮縣,加路蘭山,121.5274,23.682947,https://e-service.cwb.gov.tw/HistoryDataQuery/MonthDataController.do?command=viewMain&station=C0T9H0&stname=%25E5%258A%25A0%25E8%25B7%25AF%25E8%2598%25AD%25E5%25B1%25B1&datepicker=
C1Z140,花蓮縣,荖溪,121.45964,23.890575,https://e-service.cwb.gov.tw/HistoryDataQuery/MonthDataController.do?command=viewMain&station=C1Z140&stname=%25E8%258D%2596%25E6%25BA%25AA&datepicker=
C1T910,花蓮縣,東壙,121.404706,23.853572,https://e-service.cwb.gov.tw/HistoryDataQuery/MonthDataController.do?command=viewMain&station=C1T910&stname=%25E6%259D%25B1%25E5%25A3%2599&datepicker=
C0T9G0,花蓮縣,鳳林山,121.420131,23.735269,https://e-service.cwb.gov.tw/HistoryDataQuery/MonthDataController.do?command=viewMain&station=C0T9G0&stname=%25E9%25B3%25B3%25E6%259E%2597%25E5%25B1%25B1&datepicker=
C1T800,花蓮縣,洛韶,121.453956,24.204558,https://e-service.cwb.gov.tw/HistoryDataQuery/MonthDataController.do?command=viewMain&station=C1T800&stname=%25E6%25B4%259B%25E9%259F%25B6&datepicker=
C0T900,花蓮縣,西林,121.441458,23.8119,https://e-service.cwb.gov.tw/HistoryDataQuery/MonthDataController.do?command=viewMain&station=C0T900&stname=%25E8%25A5%25BF%25E6%259E%2597&datepicker=
C0T790,花蓮縣,大禹嶺,121.316086,24.186117,https://e-service.cwb.gov.tw/HistoryDataQuery/MonthDataController.do?command=viewMain&station=C0T790&stname=%25E5%25A4%25A7%25E7%25A6%25B9%25E5%25B6%25BA&datepicker=
C1T830,花蓮縣,布洛灣,121.57127,24.17184,https://e-service.cwb.gov.tw/HistoryDataQuery/MonthDataController.do?command=viewMain&station=C1T830&stname=%25E5%25B8%2583%25E6%25B4%259B%25E7%2581%25A3&datepicker=
C1T940,花蓮縣,大觀,121.373133,23.714206,https://e-service.cwb.gov.tw/HistoryDataQuery/MonthDataController.do?command=viewMain&station=C1T940&stname=%25E5%25A4%25A7%25E8%25A7%2580&datepicker=
C1Z110,花蓮縣,三棧,121.60501,24.11557,https://e-service.cwb.gov.tw/HistoryDataQuery/MonthDataController.do?command=viewMain&station=C1Z110&stname=%25E4%25B8%2589%25E6%25A3%25A7&datepicker=
C0T9C0,花蓮縣,富世,121.629633,24.148153,https://e-service.cwb.gov.tw/HistoryDataQuery/MonthDataController.do?command=viewMain&station=C0T9C0&stname=%25E5%25AF%258C%25E4%25B8%2596&datepicker=
C1Z090,花蓮縣,三棧,121.605119,24.116964,https://e-service.cwb.gov.tw/HistoryDataQuery/MonthDataController.do?command=viewMain&station=C1Z090&stname=%25E4%25B8%2589%25E6%25A3%25A7&datepicker=
C0T960,花蓮縣,光復,121.424964,23.660694,https://e-service.cwb.gov.tw/HistoryDataQuery/MonthDataController.do?command=viewMain&station=C0T960&stname=%25E5%2585%2589%25E5%25BE%25A9&datepicker=
C1TA00,花蓮縣,太魯閣,121.6236,24.15773,https://e-service.cwb.gov.tw/HistoryDataQuery/MonthDataController.do?command=viewMain&station=C1TA00&stname=%25E5%25A4%25AA%25E9%25AD%25AF%25E9%2596%25A3&datepicker=
C0T9B0,花蓮縣,水源,121.537169,23.991861,https://e-service.cwb.gov.tw/HistoryDataQuery/MonthDataController.do?command=viewMain&station=C0T9B0&stname=%25E6%25B0%25B4%25E6%25BA%2590&datepicker=
C1T890,花蓮縣,壽豐,121.507878,23.869097,https://e-service.cwb.gov.tw/HistoryDataQuery/MonthDataController.do?command=viewMain&station=C1T890&stname=%25E5%25A3%25BD%25E8%25B1%2590&datepicker=
C0T9D0,花蓮縣,和中,121.74103,24.26676,https://e-service.cwb.gov.tw/HistoryDataQuery/MonthDataController.do?command=viewMain&station=C0T9D0&stname=%25E5%2592%258C%25E4%25B8%25AD&datepicker=
C1T980,花蓮縣,龍澗,121.411328,24.023289,https://e-service.cwb.gov.tw/HistoryDataQuery/MonthDataController.do?command=viewMain&station=C1T980&stname=%25E9%25BE%258D%25E6%25BE%2597&datepicker=
C0Z220,花蓮縣,和平林道,121.656317,24.343922,https://e-service.cwb.gov.tw/HistoryDataQuery/MonthDataController.do?command=viewMain&station=C0Z220&stname=%25E5%2592%258C%25E5%25B9%25B3%25E6%259E%2597%25E9%2581%2593&datepicker=
C0Z230,花蓮縣,和平,121.77007,24.30717,https://e-service.cwb.gov.tw/HistoryDataQuery/MonthDataController.do?command=viewMain&station=C0Z230&stname=%25E5%2592%258C%25E5%25B9%25B3&datepicker=
C1Z130,花蓮縣,銅門,121.492842,23.965694,https://e-service.cwb.gov.tw/HistoryDataQuery/MonthDataController.do?command=viewMain&station=C1Z130&stname=%25E9%258A%2585%25E9%2596%2580&datepicker=
C1T860,花蓮縣,銅門,121.492692,23.966031,https://e-service.cwb.gov.tw/HistoryDataQuery/MonthDataController.do?command=viewMain&station=C1T860&stname=%25E9%258A%2585%25E9%2596%2580&datepicker=
C0T820,花蓮縣,天祥,121.495639,24.179597,https://e-service.cwb.gov.tw/HistoryDataQuery/MonthDataController.do?command=viewMain&station=C0T820&stname=%25E5%25A4%25A9%25E7%25A5%25A5&datepicker=
C0Z180,花蓮縣,新城,121.60454,24.03946,https://e-service.cwb.gov.tw/HistoryDataQuery/MonthDataController.do?command=viewMain&station=C0Z180&stname=%25E6%2596%25B0%25E5%259F%258E&datepicker=
C0Z190,花蓮縣,富世,121.6297,24.14743,https://e-service.cwb.gov.tw/HistoryDataQuery/MonthDataController.do?command=viewMain&station=C0Z190&stname=%25E5%25AF%258C%25E4%25B8%2596&datepicker=
C0Z310,花蓮縣,清水斷崖,121.689142,24.218294,https://e-service.cwb.gov.tw/HistoryDataQuery/MonthDataController.do?command=viewMain&station=C0Z310&stname=%25E6%25B8%2585%25E6%25B0%25B4%25E6%2596%25B7%25E5%25B4%2596&datepicker=
C1T930,花蓮縣,鳳林,121.445619,23.743603,https://e-service.cwb.gov.tw/HistoryDataQuery/MonthDataController.do?command=viewMain&station=C1T930&stname=%25E9%25B3%25B3%25E6%259E%2597&datepicker=
C0T870,花蓮縣,鯉魚潭,121.508944,23.935639,https://e-service.cwb.gov.tw/HistoryDataQuery/MonthDataController.do?command=viewMain&station=C0T870&stname=%25E9%25AF%2589%25E9%25AD%259A%25E6%25BD%25AD&datepicker=
466990,花蓮縣,花蓮,121.613275,23.975128,https://e-service.cwb.gov.tw/HistoryDataQuery/MonthDataController.do?command=viewMain&station=466990&stname=%25E8%258A%25B1%25E8%2593%25AE&datepicker=
C0Z100,花蓮縣,東華,121.549833,23.89525,https://e-service.cwb.gov.tw/HistoryDataQuery/MonthDataController.do?command=viewMain&station=C0Z100&stname=%25E6%259D%25B1%25E8%258F%25AF&datepicker=
C0Z150,花蓮縣,吉安光華,121.595153,23.930925,https://e-service.cwb.gov.tw/HistoryDataQuery/MonthDataController.do?command=viewMain&station=C0Z150&stname=%25E5%2590%2589%25E5%25AE%2589%25E5%2585%2589%25E8%258F%25AF&datepicker=
C0T841,花蓮縣,新城,121.609461,24.037928,https://e-service.cwb.gov.tw/HistoryDataQuery/MonthDataController.do?command=viewMain&station=C0T841&stname=%25E6%2596%25B0%25E5%259F%258E&datepicker=
C1T850,花蓮縣,吉安,121.562756,23.973325,https://e-service.cwb.gov.tw/HistoryDataQuery/MonthDataController.do?command=viewMain&station=C1T850&stname=%25E5%2590%2589%25E5%25AE%2589&datepicker=
C0T9I0,花蓮縣,豐濱,121.514806,23.583897,https://e-service.cwb.gov.tw/HistoryDataQuery/MonthDataController.do?command=viewMain&station=C0T9I0&stname=%25E8%25B1%2590%25E6%25BF%25B1&datepicker=
C0Z270,花蓮縣,蕃薯寮,121.540108,23.73835,https://e-service.cwb.gov.tw/HistoryDataQuery/MonthDataController.do?command=viewMain&station=C0Z270&stname=%25E8%2595%2583%25E8%2596%25AF%25E5%25AF%25AE&datepicker=
C1T810,花蓮縣,慈恩,121.388386,24.192044,https://e-service.cwb.gov.tw/HistoryDataQuery/MonthDataController.do?command=viewMain&station=C1T810&stname=%25E6%2585%2588%25E6%2581%25A9&datepicker=
C1T970,花蓮縣,大農,121.413331,23.615233,https://e-service.cwb.gov.tw/HistoryDataQuery/MonthDataController.do?command=viewMain&station=C1T970&stname=%25E5%25A4%25A7%25E8%25BE%25B2&datepicker=
C0T9A0,花蓮縣,月眉山,121.539828,23.809928,https://e-service.cwb.gov.tw/HistoryDataQuery/MonthDataController.do?command=viewMain&station=C0T9A0&stname=%25E6%259C%2588%25E7%259C%2589%25E5%25B1%25B1&datepicker=
C0T9F0,花蓮縣,水璉,121.542514,23.797131,https://e-service.cwb.gov.tw/HistoryDataQuery/MonthDataController.do?command=viewMain&station=C0T9F0&stname=%25E6%25B0%25B4%25E7%2592%2589&datepicker=
C1Z120,花蓮縣,壽豐,121.508081,23.870853,https://e-service.cwb.gov.tw/HistoryDataQuery/MonthDataController.do?command=viewMain&station=C1Z120&stname=%25E5%25A3%25BD%25E8%25B1%2590&datepicker=
C0T9E0,花蓮縣,大坑,121.581981,23.880628,https://e-service.cwb.gov.tw/HistoryDataQuery/MonthDataController.do?command=viewMain&station=C0T9E0&stname=%25E5%25A4%25A7%25E5%259D%2591&datepicker=
C1T950,花蓮縣,太安,121.370128,23.666719,https://e-service.cwb.gov.tw/HistoryDataQuery/MonthDataController.do?command=viewMain&station=C1T950&stname=%25E5%25A4%25AA%25E5%25AE%2589&datepicker=
C1E890,苗栗縣,國三N149K,121.680019,24.463414,https://e-service.cwb.gov.tw/HistoryDataQuery/MonthDataController.do?command=viewMain&station=C1E890&stname=%25E5%259C%258B%25E4%25B8%2589N149K&datepicker=
C1H910,南投縣,魚池,120.92905,23.900897,https://e-service.cwb.gov.tw/HistoryDataQuery/MonthDataController.do?command=viewMain&station=C1H910&stname=%25E9%25AD%259A%25E6%25B1%25A0&datepicker=
C1I040,南投縣,文文社,120.993467,23.849319,https://e-service.cwb.gov.tw/HistoryDataQuery/MonthDataController.do?command=viewMain&station=C1H910&stname=%25E9%25AD%259A%25E6%25B1%25A0&datepicker=
C1I160,南投縣,龍神橋,120.871547,23.779881,https://e-service.cwb.gov.tw/HistoryDataQuery/MonthDataController.do?command=viewMain&station=C1I160&stname=%25E9%25BE%258D%25E7%25A5%259E%25E6%25A9%258B&datepicker=
C1I270,南投縣,水里,120.854092,23.831978,https://e-service.cwb.gov.tw/HistoryDataQuery/MonthDataController.do?command=viewMain&station=C1I270&stname=%25E6%25B0%25B4%25E9%2587%258C&datepicker=
C1I300,南投縣,上安橋,120.873836,23.728253,https://e-service.cwb.gov.tw/HistoryDataQuery/MonthDataController.do?command=viewMain&station=C1I300&stname=%25E4%25B8%258A%25E5%25AE%2589%25E6%25A9%258B&datepicker=
C1H870,南投縣,仁愛,121.130736,24.018611,https://e-service.cwb.gov.tw/HistoryDataQuery/MonthDataController.do?command=viewMain&station=C1H870&stname=%25E4%25BB%2581%25E6%2584%259B&datepicker=
C1H880,南投縣,凌霄,121.014883,24.016786,https://e-service.cwb.gov.tw/HistoryDataQuery/MonthDataController.do?command=viewMain&station=C1H880&stname=%25E5%2587%258C%25E9%259C%2584&datepicker=
C1H850,南投縣,翠巒,121.226581,24.192864,https://e-service.cwb.gov.tw/HistoryDataQuery/MonthDataController.do?command=viewMain&station=C1H850&stname=%25E7%25BF%25A0%25E5%25B7%2592&datepicker=
C0U640,宜蘭縣,羅東,121.747817,24.683783,https://e-service.cwb.gov.tw/HistoryDataQuery/MonthDataController.do?command=viewMain&station=C0U640&stname=%25E7%25BE%2585%25E6%259D%25B1&datepicker=
C1T880,花蓮縣,吳全城,121.547933,23.886928,https://e-service.cwb.gov.tw/HistoryDataQuery/MonthDataController.do?command=viewMain&station=C1T880&stname=%25E5%2590%25B3%25E5%2585%25A8%25E5%259F%258E&datepicker=
